City_ID,City,Country,Lat,Lng,Max Temp,Humidity,Cloudiness,Wind Speed,Current Description
0,Obertyn,UA,48.7003,25.1701,54.25,61,13,7.0,few clouds
1,Albany,US,42.6001,-73.9662,92.23,43,98,5.64,overcast clouds
2,Kapaa,US,22.0752,-159.319,82.38,79,100,13.8,light rain
3,Kindu,CD,-2.95,25.95,78.69,52,100,2.39,overcast clouds
4,Algiers,DZ,36.7525,3.042,76.82,78,20,9.22,few clouds
5,Ushuaia,AR,-54.8,-68.3,38.86,56,40,4.61,scattered clouds
6,New Norfolk,AU,-42.7826,147.0587,38.7,78,92,4.0,overcast clouds
7,Kavieng,PG,-2.5744,150.7967,81.91,80,45,13.11,light rain
8,Punta Arenas,CL,-53.15,-70.9167,37.51,81,0,26.46,clear sky
9,Cape Town,ZA,-33.9258,18.4232,59.41,88,40,11.5,scattered clouds
10,Vaini,TO,-21.2,-175.2,73.56,94,40,8.05,scattered clouds
11,Mount Isa,AU,-20.7333,139.5,47.97,76,2,0.0,clear sky
12,Wuwei,CN,37.9281,102.6414,67.06,50,100,4.05,overcast clouds
13,Bluff,NZ,-46.6,168.3333,51.8,61,100,22.88,overcast clouds
14,Tuatapere,NZ,-46.1333,167.6833,55.13,61,86,15.35,light rain
15,Seoul,KR,37.5683,126.9778,74.77,88,20,2.3,mist
16,Tarpon Springs,US,28.1461,-82.7568,88.0,79,0,7.0,clear sky
17,Hermanus,ZA,-34.4187,19.2345,55.8,83,0,9.1,clear sky
18,Manta,EC,-0.95,-80.7333,76.78,78,75,11.5,broken clouds
19,Capoterra,IT,39.1763,8.9718,91.11,66,0,6.91,clear sky
20,Butaritari,KI,3.0707,172.7902,82.02,73,96,10.71,overcast clouds
21,Sao Filipe,CV,14.8961,-24.4956,75.42,79,61,14.81,broken clouds
22,Saskylakh,RU,71.9167,114.0833,47.39,55,96,7.16,overcast clouds
23,Jumla,NP,29.2747,82.1838,62.94,93,68,1.97,broken clouds
24,Upernavik,GL,72.7868,-56.1549,41.27,85,39,15.17,scattered clouds
25,Falam,MM,22.9167,93.6833,63.7,98,93,3.49,overcast clouds
26,Mar Del Plata,AR,-38.0023,-57.5575,59.95,40,0,21.85,clear sky
27,Victoria,HK,22.2855,114.1577,86.38,82,100,11.01,overcast clouds
28,Port Macquarie,AU,-31.4333,152.9167,51.89,79,2,8.08,clear sky
29,Souillac,MU,-20.5167,57.5167,70.18,56,20,19.57,light rain
30,Tazovskiy,RU,67.4667,78.7,51.75,77,100,6.11,overcast clouds
31,Cookeville,US,36.1628,-85.5016,89.31,63,40,4.61,scattered clouds
32,Tuktoyaktuk,CA,69.4541,-133.0374,59.0,88,75,8.05,broken clouds
33,Otaru,JP,43.1894,141.0022,67.03,94,100,6.69,overcast clouds
34,Olafsvik,IS,64.8945,-23.7142,51.21,84,90,5.28,overcast clouds
35,Richards Bay,ZA,-28.783,32.0377,66.2,84,0,11.01,clear sky
36,Santa Catarina De Tepehuanes,MX,25.35,-105.7333,82.35,32,32,10.94,scattered clouds
37,Byron Bay,AU,-28.65,153.6167,56.71,75,15,9.84,few clouds
38,Nikolskoye,RU,59.7035,30.7861,58.91,95,100,4.74,overcast clouds
39,Port-Gentil,GA,-0.7193,8.7815,75.16,83,40,9.22,scattered clouds
40,Lasa,IT,46.6166,10.7002,77.88,78,2,2.86,clear sky
41,Severo-Kurilsk,RU,50.6789,156.125,54.41,95,99,1.57,overcast clouds
42,Rikitea,PF,-23.1203,-134.9692,73.47,82,79,15.7,moderate rain
43,Bonito,BR,-21.1211,-56.4819,66.24,50,100,4.97,light rain
44,Cabo San Lucas,MX,22.8909,-109.9124,93.61,23,0,10.36,clear sky
45,Bredasdorp,ZA,-34.5322,20.0403,54.3,87,0,4.76,clear sky
46,Qaanaaq,GL,77.484,-69.3632,47.08,58,100,3.96,overcast clouds
47,Carnarvon,AU,-24.8667,113.6333,59.07,100,40,4.61,scattered clouds
48,New Smyrna Beach,US,29.0258,-80.927,91.18,76,43,11.56,scattered clouds
49,Bestobe,KZ,52.4994,73.0975,63.7,60,70,5.77,broken clouds
50,Santa Rosa,PH,14.3122,121.1114,78.78,95,91,1.05,overcast clouds
51,Krasnoselkup,RU,65.7,82.4667,51.82,82,19,10.33,few clouds
52,Manaure,CO,11.7751,-72.4445,90.46,52,100,18.75,overcast clouds
53,East London,ZA,-33.0153,27.9116,69.49,32,0,8.37,clear sky
54,Zhigansk,RU,66.7697,123.3711,53.58,71,99,10.6,overcast clouds
55,Neuquen,AR,-38.9516,-68.0591,53.49,50,75,9.22,broken clouds
56,Barrow,US,71.2906,-156.7887,37.42,87,100,17.27,overcast clouds
57,Manokwari,ID,-0.8667,134.0833,75.63,84,100,3.02,overcast clouds
58,Sovetskaya Gavan,RU,48.9723,140.2878,55.49,99,100,9.57,light rain
59,New Albany,US,38.2856,-85.8241,78.89,89,75,9.22,light rain
60,Faya,SA,18.3851,42.4509,69.91,41,28,4.72,scattered clouds
61,Cizre,TR,37.3272,42.1903,92.43,16,0,3.56,clear sky
62,Guerrero Negro,MX,27.9769,-114.0611,81.75,45,1,11.1,clear sky
63,Kushmurun,KZ,52.4503,64.6311,67.91,85,84,5.91,broken clouds
64,Lazarev,RU,52.225,141.5131,57.25,85,100,3.69,overcast clouds
65,Westport,US,41.1415,-73.3579,86.31,66,0,9.22,clear sky
66,Teya,RU,60.3778,92.6267,50.94,93,100,4.29,overcast clouds
67,Dikson,RU,73.5069,80.5464,44.13,79,7,8.9,clear sky
68,Sudak,UA,44.85,34.9667,72.61,75,3,8.9,clear sky
69,Roald,NO,62.5833,6.1333,59.92,88,75,14.97,broken clouds
70,Kahului,US,20.8947,-156.47,82.98,63,20,20.71,few clouds
71,Okhotsk,RU,59.3833,143.3,57.6,93,71,2.82,broken clouds
72,Tessalit,ML,20.1986,1.0114,88.21,38,100,5.91,light rain
73,Iberia,US,29.9502,-91.7507,95.99,53,70,4.41,broken clouds
74,Chuy,UY,-33.6971,-53.4616,49.6,70,0,8.75,clear sky
75,Japura,ID,-0.3167,102.35,75.02,93,43,1.48,scattered clouds
76,Stokmarknes,NO,68.5646,14.9108,51.76,87,100,1.14,overcast clouds
77,Kirensk,RU,57.7853,108.1119,54.37,95,95,0.49,overcast clouds
78,Busselton,AU,-33.65,115.3333,53.71,92,100,14.7,overcast clouds
79,Mataura,NZ,-46.1927,168.8643,51.48,75,97,8.41,overcast clouds
80,Margate,GB,51.3813,1.3862,70.88,69,31,1.99,scattered clouds
81,Shingu,JP,33.7333,135.9833,74.97,85,100,4.97,moderate rain
82,Nome,US,64.5011,-165.4064,56.1,58,20,9.22,few clouds
83,Nkowakowa,ZA,-23.8878,30.2871,58.05,70,16,3.65,few clouds
84,Grindavik,IS,63.8424,-22.4338,51.75,87,100,8.05,overcast clouds
85,Narsaq,GL,60.9167,-46.05,61.02,70,98,8.48,overcast clouds
86,Luderitz,NA,-26.6481,15.1594,64.22,52,1,5.7,clear sky
87,Ulaangom,MN,49.9811,92.0667,64.26,49,6,4.52,clear sky
88,Tasiilaq,GL,65.6145,-37.6368,50.16,79,63,6.02,broken clouds
89,Rorvik,NO,64.8621,11.2373,55.38,82,75,18.41,broken clouds
90,Ler,SS,8.3018,30.1418,75.4,77,99,1.05,overcast clouds
91,Yenagoa,NG,4.9247,6.2642,74.34,83,81,4.92,broken clouds
92,Bambous Virieux,MU,-20.3428,57.7575,70.05,56,20,19.57,light rain
93,Waterloo,CA,43.4668,-80.5164,84.47,44,75,12.66,broken clouds
94,Vieques,PR,18.425,-65.8329,88.84,66,40,20.71,haze
95,Balabac,PH,7.9868,117.0645,80.73,80,100,7.65,overcast clouds
96,Thompson,CA,55.7435,-97.8558,80.76,47,40,9.22,scattered clouds
97,Brigantine,US,39.4101,-74.3646,89.04,62,20,11.5,few clouds
98,Conceicao Do Araguaia,BR,-8.2578,-49.2647,95.59,20,6,6.22,clear sky
99,Quatre Cocos,MU,-20.2078,57.7625,69.91,67,70,21.21,light rain
100,Adrar,MR,20.5022,-10.0711,103.51,9,76,9.53,broken clouds
101,Hobart,AU,-42.8794,147.3294,39.06,84,40,17.27,scattered clouds
102,Saint-Philippe,RE,-21.3585,55.7679,69.39,74,83,15.68,broken clouds
103,Yellowknife,CA,62.456,-114.3525,64.92,77,100,21.85,overcast clouds
104,Tepla,CZ,49.98,12.8643,68.09,43,70,4.07,broken clouds
105,Cherskiy,RU,68.75,161.3,37.98,57,97,14.9,overcast clouds
106,Tromso,NO,69.6496,18.957,49.37,93,75,5.75,light intensity shower rain
107,Port-Cartier,CA,50.0334,-66.8654,78.48,63,96,4.38,overcast clouds
108,Tiksi,RU,71.6872,128.8694,38.07,75,100,5.93,overcast clouds
109,Fortuna,US,40.5982,-124.1573,62.65,74,10,9.55,clear sky
110,Atuona,PF,-9.8,-139.0333,77.99,77,13,22.01,few clouds
111,Puerto Ayora,EC,-0.7393,-90.3518,76.96,87,72,7.0,broken clouds
112,Port Alfred,ZA,-33.5906,26.891,70.52,35,0,12.24,clear sky
113,Chernyshevskiy,RU,63.0128,112.4714,49.5,96,100,2.68,overcast clouds
114,Cidreira,BR,-30.1811,-50.2056,55.69,66,33,11.92,scattered clouds
115,Norman Wells,CA,65.282,-126.8329,69.84,60,75,5.75,broken clouds
116,Saint-Ambroise,CA,48.5501,-71.3324,83.57,47,97,8.05,overcast clouds
117,Khatanga,RU,71.9667,102.5,57.78,60,100,4.5,overcast clouds
118,Tuskegee,US,32.424,-85.6916,92.43,57,10,8.99,clear sky
119,Sabang,ID,5.8933,95.3214,81.81,77,74,5.79,broken clouds
120,Merauke,ID,-8.4667,140.3333,75.09,90,100,9.44,overcast clouds
121,Avarua,CK,-21.2078,-159.775,69.85,88,75,6.91,light rain
122,Flinders,AU,-34.5833,150.8552,53.26,74,5,5.99,clear sky
123,Shache,CN,38.4167,77.2406,80.71,18,0,5.91,clear sky
124,Bayan,CN,46.0833,127.4,64.13,97,97,6.31,overcast clouds
125,Castro,BR,-24.7911,-50.0119,66.83,76,100,1.86,light rain
126,Texarkana,US,33.4251,-94.0477,100.62,41,20,11.5,few clouds
127,Santa Maria,BR,-29.6842,-53.8069,52.9,62,100,4.61,overcast clouds
128,Bingerville,CI,5.3584,-3.8869,77.94,83,20,8.05,few clouds
129,Dingle,PH,10.9995,122.6711,74.79,93,100,1.99,light rain
130,Port Elizabeth,ZA,-33.918,25.5701,70.11,63,0,3.44,clear sky
131,La Ronge,CA,55.1001,-105.2842,79.05,38,75,9.22,broken clouds
132,Hasaki,JP,35.7333,140.8333,73.8,90,98,9.48,overcast clouds
133,Camacha,PT,33.0833,-16.3333,69.22,73,20,14.97,few clouds
134,Kaitangata,NZ,-46.2817,169.8464,43.83,89,77,5.44,broken clouds
135,Bloomingdale,US,27.8936,-82.2404,91.72,63,75,10.36,light rain
136,Dalbandin,PK,28.8947,64.4101,88.68,43,19,13.44,few clouds
137,Srednekolymsk,RU,67.45,153.6833,49.73,44,11,6.15,few clouds
138,Saint-Augustin,CA,51.226,-58.6502,64.71,75,100,17.87,overcast clouds
139,Constitucion,CL,-35.3333,-72.4167,50.41,94,100,9.6,heavy intensity rain
140,Ponta Do Sol,PT,32.6667,-17.1,76.01,76,8,8.97,clear sky
141,Ahipara,NZ,-35.1667,173.1667,50.2,80,95,5.41,overcast clouds
142,Taoudenni,ML,22.6783,-3.9836,106.18,10,58,11.97,broken clouds
143,Kavaratti,IN,10.5669,72.642,82.45,74,100,20.8,overcast clouds
144,Talnakh,RU,69.4865,88.3972,54.82,68,94,2.19,overcast clouds
145,Ulladulla,AU,-35.35,150.4667,52.7,62,0,13.11,clear sky
146,Channel-Port Aux Basques,CA,47.5702,-59.1367,63.46,86,93,1.86,overcast clouds
147,Qianguo,CN,45.1171,124.8568,65.32,95,100,3.58,overcast clouds
148,Port Lincoln,AU,-34.7333,135.8667,52.74,62,100,8.28,overcast clouds
149,Glasgow,GB,55.8652,-4.2576,71.31,67,100,3.44,overcast clouds
150,Camana,PE,-16.6228,-72.7111,63.18,73,46,10.02,scattered clouds
151,Longyearbyen,SJ,78.2186,15.6401,55.24,82,75,3.44,broken clouds
152,Pemangkat,ID,1.1667,108.9667,77.27,77,100,3.49,overcast clouds
153,Yeppoon,AU,-23.1333,150.7333,51.58,89,4,5.7,clear sky
154,Hilo,US,19.7297,-155.09,90.28,80,100,5.75,overcast clouds
155,Nador,MA,35.174,-2.9287,80.67,83,20,4.61,few clouds
156,Aklavik,CA,68.2191,-135.0107,68.0,68,75,5.75,broken clouds
157,Pizarro,CO,4.9533,-77.366,81.03,78,100,6.91,overcast clouds
158,Lebu,CL,-37.6167,-73.65,50.56,85,40,15.39,scattered clouds
159,Biak,ID,-0.9131,122.8766,72.97,93,100,8.37,moderate rain
160,Wajima,JP,37.4,136.9,74.88,88,67,9.66,broken clouds
161,Port Blair,IN,11.6667,92.75,78.84,89,75,2.3,mist
162,Los Llanos De Aridane,ES,28.6585,-17.9182,72.12,81,0,16.11,clear sky
163,Nijar,ES,36.9665,-2.206,78.66,69,0,9.22,clear sky
164,Clyde River,CA,70.4692,-68.5914,35.83,87,75,16.11,broken clouds
165,Klaksvik,FO,62.2266,-6.589,50.92,87,100,22.35,overcast clouds
166,Coquimbo,CL,-29.9533,-71.3436,58.73,51,0,12.66,clear sky
167,Moron,AR,-34.6534,-58.6198,57.96,45,4,8.34,clear sky
168,Alihe,CN,50.5667,123.7167,61.05,98,85,0.89,overcast clouds
169,Tabatinga,BR,-4.2525,-69.9381,91.49,55,40,8.05,scattered clouds
170,Bilibino,RU,68.0546,166.4372,32.74,68,98,20.45,overcast clouds
171,Leningradskiy,RU,69.3833,178.4167,32.61,92,74,26.15,light snow
172,Jalu,LY,29.0331,21.5482,84.81,38,0,19.44,clear sky
173,Puro,PH,12.4841,123.3827,80.26,78,100,1.12,overcast clouds
174,Walvis Bay,NA,-22.9575,14.5053,66.09,40,18,11.25,few clouds
175,Kruisfontein,ZA,-34.0033,24.7314,67.89,24,0,19.51,clear sky
176,Esperance,AU,-33.8667,121.9,53.08,92,100,9.28,light rain
177,Seymchan,RU,62.8833,152.4333,54.14,93,100,6.22,light rain
178,Namibe,AO,-15.1961,12.1522,64.47,84,7,1.5,clear sky
179,Ribeira Grande,PT,38.5167,-28.7,75.6,78,20,18.41,few clouds
180,Bukachacha,RU,52.9833,116.9167,59.0,98,100,2.51,overcast clouds
181,Bengkulu,ID,-3.8004,102.2655,75.38,88,47,4.34,scattered clouds
182,Lere,NG,10.387,8.5726,67.41,97,100,3.71,overcast clouds
183,Granby,CA,45.4001,-72.7324,87.22,44,100,3.44,overcast clouds
184,Timaru,NZ,-44.4,171.25,55.08,52,8,18.01,clear sky
185,Alofi,NU,-19.0595,-169.9187,73.29,94,1,8.05,clear sky
186,Ayorou,NE,14.7308,0.9174,90.1,45,99,9.89,overcast clouds
187,Kumluca,TR,36.3703,30.2869,85.51,43,0,8.52,clear sky
188,Cochrane,CA,51.1834,-114.4687,71.91,55,20,9.22,few clouds
189,Muros,ES,42.7762,-9.0603,80.69,90,72,2.1,broken clouds
190,Bilma,NE,18.6853,12.9164,91.18,34,64,14.61,broken clouds
191,Airai,TL,-8.9266,125.4092,52.75,85,44,3.33,scattered clouds
192,Saint George,US,37.1041,-113.5841,101.79,21,0,17.27,clear sky
193,Vanimo,PG,-2.6741,141.3028,75.58,88,100,2.95,light rain
194,Villa Carlos Paz,AR,-31.4241,-64.4978,64.06,25,0,21.0,clear sky
195,Segovia,ES,41.1667,-4.0,93.43,17,0,9.33,clear sky
196,Mporokoso,ZM,-9.3727,30.125,62.11,47,74,10.22,broken clouds
197,Dzhebariki-Khaya,RU,62.2167,135.8,73.18,76,6,1.88,clear sky
198,Half Moon Bay,US,37.4636,-122.4286,91.89,67,40,17.27,mist
199,Grand Gaube,MU,-20.0064,57.6608,70.2,61,38,8.01,scattered clouds
200,Grandview,US,38.8858,-94.533,90.99,64,40,16.11,scattered clouds
201,Asau,RO,46.4333,26.4,67.12,63,10,4.16,clear sky
202,Kamphaeng Phet,TH,16.25,99.5,77.95,82,80,3.85,broken clouds
203,Hambantota,LK,6.1241,81.1185,80.15,79,100,15.97,overcast clouds
204,Bogande,BF,12.9714,-0.1436,79.48,69,13,5.68,few clouds
205,Saldanha,ZA,-33.0117,17.9442,57.25,92,0,7.85,clear sky
206,Bainbridge,US,47.6262,-122.5212,67.78,69,100,5.75,overcast clouds
207,Sakakah,SA,29.9697,40.2064,96.37,15,30,6.38,scattered clouds
208,Padang,ID,-0.9492,100.3543,76.6,79,12,4.16,few clouds
209,Agua Verde,MX,22.9,-106.05,78.89,68,100,7.67,overcast clouds
210,Seydi,TM,39.4816,62.9137,91.36,14,0,12.53,clear sky
211,Rock Springs,US,41.5875,-109.2029,94.23,16,0,5.75,clear sky
212,San Juan,AR,-31.5375,-68.5364,64.27,13,0,7.76,clear sky
213,Vilcun,CL,-38.65,-72.2333,47.14,98,100,8.75,overcast clouds
214,Progreso,MX,21.2833,-89.6667,94.1,59,15,14.9,few clouds
215,Matara,LK,5.9485,80.5353,78.67,85,100,9.98,overcast clouds
216,Ust-Nera,RU,64.5667,143.2,61.88,80,100,5.73,overcast clouds
217,Mackay,AU,-21.15,149.2,60.67,88,2,8.99,clear sky
218,Najran,SA,17.4924,44.1277,86.65,31,92,8.52,overcast clouds
219,San Cristobal,VE,7.7669,-72.225,84.38,53,58,6.58,broken clouds
220,Namie,JP,37.4833,141.0,74.71,96,95,4.81,overcast clouds
221,Elat,IL,29.5581,34.9482,93.04,36,0,10.36,clear sky
222,Madaoua,NE,14.073,5.96,82.24,62,100,11.86,overcast clouds
223,Rundu,NA,-17.9333,19.7667,54.28,37,0,6.87,clear sky
224,Usinsk,RU,65.9939,57.5281,62.53,86,100,4.7,overcast clouds
225,Bakloh,IN,32.4667,75.9167,72.84,69,1,4.88,clear sky
226,Tabou,CI,4.423,-7.3528,75.45,81,100,11.34,light rain
227,Aswan,EG,24.0934,32.907,94.3,12,0,8.05,clear sky
228,Kununurra,AU,-15.7667,128.7333,49.98,87,4,0.0,clear sky
229,Alice Springs,AU,-23.7,133.8833,35.15,41,0,0.0,clear sky
230,Namatanai,PG,-3.6667,152.4333,79.11,79,52,8.86,light rain
231,Poum,NC,-20.2333,164.0167,73.63,72,0,18.92,clear sky
232,Arlit,NE,18.7369,7.3853,94.42,30,63,7.25,broken clouds
233,Zhiryatino,RU,53.2228,33.7306,57.52,93,74,5.68,broken clouds
234,Whakatane,NZ,-37.9585,176.9854,41.77,99,99,3.44,overcast clouds
235,Hofn,IS,64.2539,-15.2082,55.63,68,15,9.53,few clouds
236,Labuan,MY,5.2767,115.2417,75.56,100,20,0.0,few clouds
237,Laguna,US,38.421,-121.4238,103.64,31,0,8.05,clear sky
238,Homer,US,59.6425,-151.5483,55.27,86,100,11.99,light rain
239,Arroio Dos Ratos,BR,-30.0772,-51.7292,53.42,75,17,4.76,few clouds
240,Panjab,AF,34.388,67.0233,61.83,28,0,5.08,clear sky
241,Quelimane,MZ,-17.8786,36.8883,65.5,95,89,4.72,overcast clouds
242,Turukhansk,RU,65.8167,87.9833,53.76,69,13,11.14,few clouds
243,Coahuayana,MX,18.7333,-103.6833,90.09,59,70,7.85,broken clouds
244,Piterka,RU,50.6803,47.4454,72.07,56,0,5.73,clear sky
245,Tocopilla,CL,-22.092,-70.1979,65.37,62,16,8.77,few clouds
246,Bara,NG,10.3744,10.7288,71.64,93,100,2.06,overcast clouds
247,Vinh Long,VN,10.25,105.9667,76.98,95,20,5.01,few clouds
248,Mahebourg,MU,-20.4081,57.7,70.09,56,20,19.57,few clouds
249,Vestmannaeyjar,IS,63.4427,-20.2734,52.3,86,42,15.46,scattered clouds
250,Trairi,BR,-3.2778,-39.2689,80.87,74,29,11.56,scattered clouds
251,Zakamensk,RU,50.3741,103.2863,53.01,86,29,1.52,scattered clouds
252,Farmington,US,36.7281,-108.2187,99.77,19,0,6.91,clear sky
253,Chadiza,ZM,-14.0678,32.4392,57.65,65,65,6.4,broken clouds
254,Arraial Do Cabo,BR,-22.9661,-42.0278,82.36,69,0,10.36,clear sky
255,Hami,CN,42.8,93.45,80.55,27,6,3.94,clear sky
256,Atar,MR,20.5169,-13.0499,105.15,8,19,9.04,few clouds
257,Salalah,OM,17.0151,54.0924,78.89,89,100,6.91,overcast clouds
258,Nueva Imperial,CL,-38.7333,-72.95,50.65,88,29,11.32,scattered clouds
259,Kenai,US,60.5544,-151.2583,55.09,94,100,4.61,light rain
260,Pisco,PE,-13.7,-76.2167,64.45,72,3,10.36,haze
261,Chapais,CA,49.7834,-74.8492,78.58,28,53,7.78,broken clouds
262,Jamestown,US,42.097,-79.2353,78.39,81,100,9.22,overcast clouds
263,Libreville,GA,0.3925,9.4537,75.22,78,17,10.71,few clouds
264,Kotri,PK,25.366,68.3122,83.28,83,35,10.38,scattered clouds
265,Fort Nelson,CA,58.8053,-122.7002,71.19,49,75,6.91,broken clouds
266,Ust-Barguzin,RU,53.45,108.9833,48.49,88,6,0.85,clear sky
267,Abdulino,RU,53.7,53.6667,63.61,82,77,2.26,broken clouds
268,Dobson,US,36.3957,-80.7226,90.28,72,75,4.61,broken clouds
269,Strelka,RU,58.0728,93.0344,54.95,97,100,3.49,light rain
270,Lavrentiya,RU,65.5833,-171.0,46.78,97,100,8.5,overcast clouds
271,Thunder Bay,CA,48.4001,-89.3168,73.31,68,20,10.36,few clouds
272,Morgan City,US,29.6994,-91.2068,93.99,52,60,5.64,broken clouds
273,Taltal,CL,-25.4,-70.4833,62.15,63,7,4.61,clear sky
274,Viesite,LV,56.3475,25.5551,50.25,94,23,3.89,few clouds
275,Kalakamati,BW,-20.5929,27.3121,49.87,71,0,10.0,clear sky
276,Tambura,SS,5.6,27.4667,70.14,93,100,3.8,light rain
277,Ajdabiya,LY,30.7554,20.2263,81.54,60,0,17.76,clear sky
278,Prnjavor,BA,44.8703,17.6628,72.66,46,3,2.51,clear sky
279,Villa De Reyes,MX,21.8,-100.9333,83.68,27,14,14.32,few clouds
280,Miracema Do Tocantins,BR,-9.5618,-48.3967,93.9,22,1,6.29,clear sky
281,Mayo,US,38.8876,-76.5119,87.13,79,0,8.05,clear sky
282,Hurricane,US,37.1753,-113.2899,100.6,20,24,6.69,few clouds
283,Chirongui,YT,-12.9319,45.1483,71.53,69,58,6.08,light rain
284,Makakilo City,US,21.3469,-158.0858,81.01,66,100,14.97,overcast clouds
285,Montepuez,MZ,-13.1256,38.9997,68.36,68,100,6.22,overcast clouds
286,Vao,NC,-22.6667,167.4833,70.88,73,99,18.48,overcast clouds
287,Ambilobe,MG,-13.2,49.05,67.41,66,99,5.66,overcast clouds
288,Sidney,AU,-33.8679,151.2073,53.96,67,0,9.22,clear sky
289,Kunming,CN,25.0389,102.7183,66.13,94,0,8.95,clear sky
290,Cabedelo,BR,-6.9811,-34.8339,77.67,79,79,16.96,broken clouds
291,Muslyumovo,RU,55.3033,53.1947,64.44,90,75,2.98,light rain
292,Kodiak,US,57.79,-152.4072,63.91,52,40,8.05,scattered clouds
293,Vuktyl,RU,63.8567,57.3094,59.59,91,67,2.93,broken clouds
294,Rockhampton,AU,-23.3833,150.5,51.69,93,1,1.14,clear sky
295,Sargur,IN,11.9833,76.4167,68.67,94,97,8.84,overcast clouds
296,Ranong,TH,9.9658,98.6348,78.62,89,98,4.74,overcast clouds
297,Maniitsoq,GL,65.4167,-52.9,42.67,96,100,17.6,moderate rain
298,Faanui,PF,-16.4833,-151.75,77.11,70,77,18.1,light rain
299,Katsuura,JP,35.1333,140.3,77.45,90,99,14.61,overcast clouds
300,Tomigusuku,JP,26.185,127.675,83.97,91,40,16.11,mist
301,Bosaso,SO,11.2842,49.1816,95.18,35,5,20.02,clear sky
302,Hualmay,PE,-11.0964,-77.6139,65.82,72,14,11.61,few clouds
303,Beya,RU,53.0533,90.9139,58.59,94,100,8.77,light rain
304,Lazaro Cardenas,MX,17.9583,-102.2,86.61,63,87,11.32,overcast clouds
305,Maldonado,UY,-34.6667,-54.9167,54.79,62,0,11.56,clear sky
306,Andra,RU,62.5147,65.8878,57.6,65,7,3.62,clear sky
307,Sakaiminato,JP,35.55,133.2333,75.18,88,75,4.61,broken clouds
308,Battipaglia,IT,40.6109,14.9852,81.99,74,27,4.94,scattered clouds
309,Pitimbu,BR,-7.4706,-34.8086,77.59,80,50,15.41,scattered clouds
310,Pingliang,CN,35.5392,106.6861,67.06,43,98,6.2,overcast clouds
311,Wanxian,CN,30.8039,108.3897,79.74,95,100,0.76,overcast clouds
312,Magole,TZ,-6.3667,37.3667,70.52,57,99,2.01,overcast clouds
313,Tajumulco,GT,15.0833,-91.8833,68.79,67,68,0.54,broken clouds
314,Poya,NC,-21.35,165.15,66.88,87,5,5.86,clear sky
315,Pacifica,US,37.6138,-122.4869,87.15,82,20,17.27,mist
316,Santa Isabel Do Rio Negro,BR,-0.4139,-65.0192,86.81,59,76,4.16,broken clouds
317,Bozuyuk,TR,39.9078,30.0367,70.14,83,0,7.09,clear sky
318,Marataizes,BR,-21.0433,-40.8244,74.68,78,100,19.3,overcast clouds
319,Tailai,CN,46.3833,123.4,66.06,90,99,3.4,overcast clouds
320,Chase,CA,50.8165,-119.6857,80.08,40,30,3.67,scattered clouds
321,Sao Felix Do Xingu,BR,-6.6447,-51.995,95.16,25,6,3.89,clear sky
322,Inirida,CO,3.8653,-67.9239,83.52,79,84,3.11,broken clouds
323,Castle Rock,US,39.3722,-104.8561,95.31,20,1,7.0,clear sky
324,Sambava,MG,-14.2667,50.1667,69.76,84,90,14.74,light rain
325,Geraldton,AU,-28.7667,114.6,54.01,100,40,10.36,scattered clouds
326,Itoman,JP,26.1247,127.6694,84.22,91,40,16.11,mist
327,Luleburgaz,TR,41.4039,27.3592,71.38,61,0,9.53,clear sky
328,Khani,GE,41.9563,42.9566,63.97,98,100,1.19,overcast clouds
329,Soyo,AO,-6.1349,12.3689,70.99,87,34,7.7,scattered clouds
330,Kamen-Rybolov,RU,44.7481,132.0403,63.28,98,100,5.12,overcast clouds
331,Qarchi Gak,AF,37.04,66.7889,92.55,10,0,12.59,clear sky
332,Bubaque,GW,11.2833,-15.8333,80.53,87,100,15.75,overcast clouds
333,Easton,US,40.6884,-75.2207,88.09,54,20,5.75,few clouds
334,Bhawanipatna,IN,19.9,83.1667,76.57,92,98,4.65,overcast clouds
335,Paciran,ID,-6.8767,112.3761,77.11,86,88,8.75,overcast clouds
336,Puerto Leguizamo,CO,-0.1934,-74.7819,80.91,81,97,1.57,overcast clouds
337,Touros,BR,-5.1989,-35.4608,78.31,78,76,17.22,broken clouds
338,Koumac,NC,-20.5667,164.2833,68.7,79,6,5.1,clear sky
339,Bhanpuri,IN,21.1,80.9167,76.08,96,97,7.94,overcast clouds
340,Sola,VU,-13.8833,167.55,81.21,77,81,22.5,broken clouds
341,Codrington,AU,-38.2667,141.9667,48.54,71,100,18.21,overcast clouds
342,Kawalu,ID,-7.3817,108.2082,71.89,96,100,1.1,overcast clouds
343,Chunskiy,RU,56.0815,99.6342,54.73,82,100,3.98,overcast clouds
344,Tchibanga,GA,-2.85,11.0333,68.13,81,22,3.53,few clouds
345,Lahore,PK,31.5497,74.3436,86.11,74,40,6.91,smoke
346,Adre,TD,13.4667,22.2,72.64,77,100,11.25,light rain
347,Caravelas,BR,-17.7125,-39.2481,74.23,78,5,7.81,clear sky
348,Araouane,ML,18.9048,-3.5265,99.19,27,63,7.85,broken clouds
349,Maarianhamina,AX,60.0973,19.9348,53.46,76,0,3.44,clear sky
350,Bonavista,CA,48.6499,-53.1147,65.44,66,69,17.72,broken clouds
351,Deputatskiy,RU,69.3,139.9,45.72,66,98,2.48,overcast clouds
352,Gerash,IR,27.6652,54.1371,95.14,23,79,7.61,broken clouds
353,Devils Lake,US,48.1128,-98.8651,93.31,57,0,8.99,clear sky
354,Labuhan,ID,-6.8844,112.2051,76.42,88,100,7.43,overcast clouds
355,Pinawa,CA,50.1489,-95.8811,92.07,39,8,8.12,clear sky
356,Svetlogorsk,BY,52.6333,29.7333,53.08,94,59,6.4,broken clouds
357,Hovd,MN,48.0056,91.6419,65.52,41,15,7.78,few clouds
358,Yeniseysk,RU,58.4497,92.1703,55.54,100,100,2.01,heavy intensity rain
359,Tamasane,BW,-22.4184,27.4013,51.87,86,0,7.83,clear sky
360,Nanortalik,GL,60.1432,-45.2371,43.56,84,100,13.73,overcast clouds
361,Komsomolskiy,UZ,40.4272,71.7189,81.32,39,0,4.61,clear sky
362,Santa Luzia,BR,-19.7697,-43.8514,86.14,35,0,4.61,clear sky
363,Polunochnoye,RU,60.8697,60.4153,61.41,96,96,0.85,overcast clouds
364,Berlevag,NO,70.8578,29.0864,53.6,87,40,9.22,scattered clouds
365,Hamilton,US,39.1834,-84.5333,74.25,94,100,13.8,moderate rain
366,Teknaf,BD,20.8624,92.3058,80.24,89,100,8.86,overcast clouds
367,Ossora,RU,59.2353,163.0719,59.52,85,98,5.68,overcast clouds
368,Puksoozero,RU,62.5903,40.6066,55.6,76,100,1.34,overcast clouds
369,Jablah,SY,35.3614,35.9256,79.09,78,0,9.22,clear sky
370,Tamworth,GB,52.634,-1.6959,81.01,42,100,4.0,overcast clouds
371,Kastamonu,TR,41.5,33.6667,56.32,90,0,4.12,clear sky
372,Konskie,PL,51.1917,20.4061,60.24,61,41,5.41,scattered clouds
373,Coihaique,CL,-45.5752,-72.0662,40.95,75,75,9.22,broken clouds
374,Tarnos,FR,43.5417,-1.4628,91.22,44,0,8.05,clear sky
375,Egvekinot,RU,66.3167,-179.1667,34.74,54,19,24.38,light snow
376,Saint-Joseph,RE,-21.3667,55.6167,68.38,74,51,16.49,broken clouds
377,Phalodi,IN,27.1333,72.3667,90.48,60,99,5.1,light rain
378,Port Hardy,CA,50.6996,-127.4199,55.58,88,75,11.5,broken clouds
379,Yinchuan,CN,38.4681,106.2731,77.09,25,96,1.36,overcast clouds
380,Howard,US,39.2504,-76.933,85.95,78,99,4.85,overcast clouds
381,Shenjiamen,CN,29.9576,122.298,77.5,95,100,7.78,overcast clouds
382,Haines Junction,CA,60.7522,-137.5108,64.35,45,93,9.22,overcast clouds
383,Acapulco,MX,16.8634,-99.8901,87.62,66,75,3.44,broken clouds
384,Salinopolis,BR,-0.6136,-47.3561,81.66,77,66,10.65,broken clouds
385,Kloulklubed,PW,7.0419,134.2556,73.9,72,97,3.56,overcast clouds
386,Beringovskiy,RU,63.05,179.3167,45.75,60,10,29.28,clear sky
387,Gazli,UZ,40.1333,63.45,94.28,11,0,17.87,clear sky
388,Nkayi,CG,-4.1841,13.2884,77.88,60,14,6.67,few clouds
389,Mitsamiouli,KM,-11.3847,43.2844,77.16,68,15,5.93,few clouds
390,Shimoda,JP,34.6667,138.95,75.11,89,80,12.03,broken clouds
391,Batemans Bay,AU,-35.7167,150.1833,51.1,51,0,11.72,clear sky
392,Iqaluit,CA,63.7506,-68.5145,42.53,93,100,5.75,light rain
393,Mezen,RU,65.8522,44.24,58.48,87,100,4.61,overcast clouds
394,Beyla,GN,8.6833,-8.6333,69.51,97,96,3.96,moderate rain
395,Comodoro Rivadavia,AR,-45.8667,-67.5,48.06,49,0,24.16,clear sky
396,Tautira,PF,-17.7333,-149.15,75.56,70,42,13.47,scattered clouds
397,Tigil,RU,57.8,158.6667,60.82,78,18,16.28,few clouds
398,Sao Sebastiao,BR,-23.76,-45.4097,69.06,94,100,7.99,overcast clouds
399,Ca Mau,VN,9.1769,105.15,77.31,90,65,3.96,broken clouds
400,Tatawin,TN,32.9297,10.4518,77.23,60,0,12.75,clear sky
401,Buin,CL,-33.7333,-70.75,55.87,51,100,1.63,overcast clouds
402,Morehead,US,37.2711,-87.1764,79.99,94,40,4.61,light rain
403,Tefe,BR,-3.3542,-64.7114,93.31,55,20,10.36,few clouds
404,Wajir,KE,1.7471,40.0573,76.66,53,26,21.3,scattered clouds
405,Torbay,CA,47.6666,-52.7314,78.89,70,100,13.8,overcast clouds
406,Novikovo,RU,51.1537,37.8879,61.52,73,100,4.29,overcast clouds
407,Balvi,LV,57.1313,27.2658,52.0,92,100,5.7,overcast clouds
408,Xuddur,SO,4.1213,43.8894,73.71,66,29,22.15,scattered clouds
409,Manono,CD,-7.3,27.4167,77.52,35,52,6.15,broken clouds
410,Sitka,US,57.0531,-135.33,55.29,88,100,6.91,moderate rain
411,Iquitos,PE,-3.7481,-73.2472,80.64,89,75,3.44,broken clouds
412,Hithadhoo,MV,-0.6,73.0833,76.77,83,100,20.09,overcast clouds
413,Provideniya,RU,64.3833,-173.3,52.56,90,98,9.84,overcast clouds
414,Celestun,MX,20.8667,-90.4,84.09,68,49,13.13,scattered clouds
415,Oktyabrskiy,RU,54.4815,53.471,66.2,86,100,2.04,overcast clouds
416,Kamaishi,JP,39.2667,141.8833,70.32,92,49,3.49,light rain
417,Kyra,RU,49.5776,111.9753,51.35,68,0,4.72,clear sky
418,Diamantino,BR,-14.4086,-56.4461,90.39,31,2,7.85,clear sky
419,Vangaindrano,MG,-23.35,47.6,65.71,89,99,6.87,moderate rain
420,Savannah Bight,HN,16.45,-85.85,83.12,75,43,17.72,scattered clouds
421,Morant Bay,JM,17.8815,-76.4093,92.71,66,44,14.12,scattered clouds
422,Ugoofaaru,MV,5.6667,73.0,79.41,80,100,23.53,overcast clouds
423,Broome,US,42.2506,-75.833,89.02,50,40,5.75,scattered clouds
424,Roma,US,43.2128,-75.4557,89.73,43,0,1.99,clear sky
425,Yar-Sale,RU,66.8333,70.8333,55.81,67,75,5.1,broken clouds
426,Moyale,KE,3.5167,39.0584,68.9,61,100,17.4,overcast clouds
427,Chotila,IN,22.4167,71.1833,78.26,86,98,12.12,overcast clouds
428,Charleston,US,32.7766,-79.9309,86.23,83,100,17.27,overcast clouds
429,Ancud,CL,-41.8697,-73.8203,42.22,77,96,16.49,light rain
430,Aksu,CN,41.1231,80.2644,77.77,27,0,9.89,clear sky
431,Cururupu,BR,-1.8283,-44.8683,83.14,68,33,4.68,scattered clouds
432,Huarmey,PE,-10.0681,-78.1522,67.73,70,1,12.93,clear sky
433,Novorozhdestvenskaya,RU,45.8619,39.9542,74.88,38,49,7.36,scattered clouds
434,Cognac,FR,45.5,-0.25,86.04,32,95,10.36,overcast clouds
435,Xam Nua,LA,20.4197,104.0439,70.0,92,100,3.4,overcast clouds
436,Chokurdakh,RU,70.6333,147.9167,42.67,65,10,11.9,clear sky
437,Muzhi,RU,65.3667,64.6667,58.57,67,18,2.46,few clouds
438,Kangaatsiaq,GL,68.3065,-53.4641,41.14,90,88,11.61,overcast clouds
439,Oistins,BB,13.0667,-59.5333,86.09,62,20,23.02,few clouds
440,Ewa Beach,US,21.3156,-158.0072,82.44,66,75,14.97,broken clouds
441,Kirkland Lake,CA,48.1446,-80.0377,82.69,42,46,6.13,scattered clouds
442,Calama,CL,-22.4667,-68.9333,70.29,5,0,16.11,clear sky
443,Garowe,SO,8.4054,48.4845,83.53,37,0,28.95,clear sky
444,Zimmi,SL,7.3153,-11.3061,73.27,97,100,3.67,light rain
445,Devin,BG,41.7433,24.4,61.18,63,0,3.33,clear sky
446,Necochea,AR,-38.5473,-58.7368,54.88,43,12,21.39,few clouds
447,Ostrovnoy,RU,68.0531,39.5131,57.04,76,48,9.8,scattered clouds
448,Kapoeta,SS,4.7717,33.5903,80.1,52,70,7.7,broken clouds
449,Kuminskiy,RU,58.6667,66.5667,57.97,69,22,1.83,few clouds
450,Kaabong,UG,3.4836,34.1492,66.49,69,69,9.13,broken clouds
451,Yaring,TH,6.8662,101.3689,78.64,86,27,3.58,scattered clouds
452,Darnah,LY,32.767,22.6367,78.87,78,0,14.92,clear sky
453,Tezonapa,MX,18.6092,-96.6917,87.28,54,22,4.72,few clouds
454,Vila Franca Do Campo,PT,37.7167,-25.4333,70.21,78,39,7.11,scattered clouds
455,Chara,RU,56.9064,118.2631,61.32,94,100,2.86,light rain
456,Thinadhoo,MV,0.5333,72.9333,79.16,80,100,20.74,light rain
457,Mizan Teferi,ET,6.9833,35.5833,60.82,97,100,2.73,light rain
458,Cairns,AU,-16.9167,145.7667,67.95,84,100,8.05,overcast clouds
459,Coos Bay,US,43.3665,-124.2179,77.31,74,0,20.71,clear sky
460,Toamasina,MG,-18.1667,49.3833,64.4,94,75,6.91,broken clouds
461,Whittlesea,ZA,-32.1759,26.8244,51.91,38,0,6.51,clear sky
462,Miri,MY,4.4148,114.0089,77.14,100,20,2.3,few clouds
463,Tiarei,PF,-17.5333,-149.3333,78.82,70,38,14.92,scattered clouds
464,Ilulissat,GL,69.2167,-51.1,51.82,58,20,9.22,few clouds
465,Cockburn Town,TC,21.4612,-71.1419,85.96,66,40,18.41,scattered clouds
466,Palauig,PH,15.435,119.9045,79.5,79,53,4.0,broken clouds
467,Portland,US,45.5234,-122.6762,76.41,46,75,9.22,broken clouds
468,Pangnirtung,CA,66.1451,-65.7125,46.4,76,40,13.8,scattered clouds
469,Ixtapa,MX,20.7,-105.2,86.23,66,75,5.01,broken clouds
470,Charters Towers,AU,-20.1,146.2667,56.77,87,1,5.61,clear sky
471,Dragotesti,RO,44.8,23.1667,60.6,37,1,6.44,clear sky
472,Lata,PT,40.1629,-8.3327,68.11,75,7,4.5,clear sky
473,Bethel,US,41.3712,-73.414,84.78,61,0,6.91,clear sky
474,Lorengau,PG,-2.0226,147.2712,81.63,78,89,8.93,moderate rain
475,Pachino,IT,36.7186,15.0907,80.98,63,0,3.2,clear sky
476,Amahai,ID,-3.3333,128.9167,76.06,91,96,5.86,overcast clouds
477,Marawi,PH,7.9986,124.2928,68.9,95,99,3.38,overcast clouds
478,Bagdarin,RU,54.4333,113.6,52.57,96,96,2.06,overcast clouds
479,Ohara,JP,35.25,140.3833,76.69,91,97,12.24,overcast clouds
480,Palu,ID,-0.8917,119.8707,74.57,96,100,4.54,moderate rain
481,Mola Di Bari,IT,41.0609,17.0873,85.59,71,55,8.19,broken clouds
482,Obera,AR,-27.4871,-55.1199,57.22,56,0,2.66,clear sky
483,Luba,GQ,3.4568,8.5547,76.89,87,100,5.06,light rain
484,Nagato,JP,34.3833,131.2,76.87,78,100,5.59,overcast clouds
485,Candido De Abreu,BR,-24.5669,-51.3333,65.93,65,100,1.19,light rain
486,Mogadishu,SO,2.0371,45.3438,76.26,81,34,17.78,scattered clouds
487,Jambi,ID,-1.6,103.6167,74.57,91,84,2.57,broken clouds
488,Aykhal,RU,66.0,111.5,48.72,97,100,4.23,overcast clouds
489,Kodar,IN,16.9833,79.9667,77.43,89,100,8.37,overcast clouds
490,College,US,64.8569,-147.8028,63.07,65,100,1.01,overcast clouds
491,Aasiaat,GL,68.7098,-52.8699,39.97,86,52,6.46,broken clouds
492,Altamira,BR,-3.2033,-52.2064,91.83,49,76,1.72,broken clouds
493,Mariental,NA,-24.6333,17.9667,58.03,28,7,12.84,clear sky
494,Togul,RU,53.465,85.9128,52.74,86,63,3.42,broken clouds
495,Pandan,PH,14.0453,124.1694,79.9,85,100,4.68,overcast clouds
496,Khasan,RU,42.4308,130.6434,63.16,98,100,8.1,overcast clouds
497,Sassari,IT,40.7272,8.5603,78.58,65,0,2.06,clear sky
498,North Bend,US,43.4065,-124.2243,77.23,74,0,20.71,clear sky
499,Altamont,US,42.2068,-121.7372,89.78,24,0,3.0,clear sky
500,La Concordia,NI,13.1953,-86.1667,83.71,68,51,10.71,broken clouds
501,Grado,ES,43.388,-6.0743,75.49,83,0,12.66,clear sky
502,Catumbela,AO,-12.4314,13.5472,67.44,88,27,3.56,scattered clouds
503,Vilhena,BR,-12.7406,-60.1458,86.22,51,20,9.22,few clouds
504,Kungurtug,RU,50.5994,97.5228,50.16,67,69,1.57,broken clouds
505,Colchester,GB,51.8892,0.9042,76.12,69,89,8.41,overcast clouds
506,Tateyama,JP,34.9833,139.8667,75.09,89,97,14.18,overcast clouds
507,Xichang,CN,27.8964,102.2634,69.39,94,100,1.23,moderate rain
508,Opuwo,NA,-18.0607,13.84,62.04,34,0,7.96,clear sky
509,Naze,JP,28.3667,129.4833,79.72,85,100,17.38,light rain
510,Pogranichnyy,RU,44.4064,131.3769,61.75,99,100,3.09,overcast clouds
511,Mattru,SL,7.6244,-11.8332,73.58,97,99,4.12,light rain
512,Fort Abbas,PK,29.1925,72.8536,86.95,70,7,8.03,heavy intensity rain
513,Ilinskiy,RU,55.619,38.1182,58.71,82,40,8.99,light intensity shower rain
514,Bathsheba,BB,13.2167,-59.5167,86.61,80,20,23.02,few clouds
515,Bandipur,NP,27.9333,84.4167,70.34,90,84,0.89,broken clouds
516,Kondinskoye,RU,59.6481,67.41,59.31,66,44,1.63,scattered clouds
517,Sumbe,AO,-11.2061,13.8437,68.02,93,12,6.76,few clouds
518,Douentza,ML,14.9951,-2.9517,89.62,45,94,11.18,overcast clouds
519,Varberg,SE,57.1056,12.2508,64.24,87,100,16.84,overcast clouds
520,De-Kastri,RU,51.4667,140.7833,55.6,94,100,1.81,overcast clouds
521,Tarauaca,BR,-8.1614,-70.7656,84.56,68,84,1.59,broken clouds
522,Bandarbeyla,SO,9.4942,50.8122,76.44,81,10,37.38,clear sky
523,Lircay,PE,-12.9896,-74.7205,58.41,45,59,10.07,broken clouds
524,Divnomorskoye,RU,44.5011,38.1353,75.72,65,96,7.27,overcast clouds
525,Angra Dos Reis,BR,-23.0067,-44.3181,71.6,92,99,6.33,overcast clouds
526,Ostersund,SE,63.1792,14.6357,54.05,94,75,10.0,light intensity drizzle
527,Bintulu,MY,3.1667,113.0333,77.41,88,40,3.44,scattered clouds
528,Berdigestyakh,RU,62.0989,126.6992,68.94,88,88,2.75,overcast clouds
529,Pierre,US,44.3683,-100.351,92.32,49,0,10.36,clear sky
530,Dongsheng,CN,39.8161,109.9776,67.19,39,78,4.38,broken clouds
531,San Fernando,PH,15.0286,120.6898,76.73,94,88,3.04,overcast clouds
532,Roswell,US,34.0232,-84.3616,92.79,60,75,4.61,light rain
533,Bereda,ES,43.2686,-7.5406,72.77,70,84,1.43,light rain
534,Kinsale,IE,51.7075,-8.5306,67.37,77,0,10.36,clear sky
535,Mount Gambier,AU,-37.8333,140.7667,46.74,80,100,8.23,light rain
536,Bowen,AU,-20.0167,148.2333,61.11,87,0,7.92,clear sky
537,Humaita,BR,-7.5061,-63.0208,92.14,43,95,1.92,overcast clouds
538,Sterling,US,39.0062,-77.4286,86.9,77,100,7.0,overcast clouds
539,Glace Bay,CA,46.1969,-59.957,80.78,48,75,16.11,broken clouds
540,Hvide Sande,DK,56.0045,8.1294,62.1,91,100,12.53,overcast clouds
541,Port Hedland,AU,-20.3167,118.5667,53.65,66,4,3.44,clear sky
542,Pecos,US,31.4229,-103.4932,98.69,22,0,10.36,clear sky
543,Ukiah,US,39.1502,-123.2078,101.44,35,0,4.61,clear sky
544,Pevek,RU,69.7008,170.3133,31.23,94,100,30.98,light snow
545,Zaysan,KZ,47.4667,84.8667,71.02,33,62,6.71,broken clouds
546,Sekoma,BW,-24.4,23.8833,55.04,51,0,8.32,clear sky
547,Vilshofen,DE,48.6333,13.1833,65.34,67,9,3.15,clear sky
548,Kismayo,SO,-0.3582,42.5454,75.83,81,6,18.95,light rain
549,Omboue,GA,-1.5746,9.2618,72.7,82,10,7.45,clear sky
550,Sinnamary,GF,5.3833,-52.95,80.78,77,71,4.05,broken clouds
551,Taylorville,US,39.5489,-89.2945,76.89,88,100,0.0,overcast clouds
552,Waipawa,NZ,-41.4122,175.5153,51.3,73,100,20.36,overcast clouds
553,Tukrah,LY,32.5341,20.5791,79.36,83,0,16.04,clear sky
554,Cedar City,US,37.6775,-113.0619,92.39,21,0,12.66,clear sky
555,Laizhou,CN,37.1717,119.9214,71.64,87,61,2.17,broken clouds
556,Nagram,IN,26.6167,81.1333,89.65,47,85,12.37,overcast clouds
557,Celica,EC,-4.1167,-79.95,69.85,59,57,5.88,light rain
558,Katobu,ID,-4.9408,122.5276,73.36,90,100,4.21,overcast clouds
559,Lodja,CD,-3.4833,23.4333,75.78,47,34,2.24,scattered clouds
560,Simpang,ID,-1.2667,104.0833,75.72,95,85,2.91,overcast clouds
561,El Alto,PE,-4.2714,-81.2147,69.46,72,12,16.71,few clouds
562,Winslow,US,35.0242,-110.6974,96.98,20,0,9.22,clear sky
563,Vila Velha,BR,-20.3297,-40.2925,80.55,79,20,14.97,few clouds
564,Saint-Lo,FR,49.1162,-1.0903,81.03,39,60,5.73,broken clouds
565,Orocue,CO,4.7912,-71.3354,82.44,78,93,4.12,overcast clouds
566,Ulaanbaatar,MN,47.9077,106.8832,48.33,81,0,2.24,clear sky
567,Srikakulam,IN,18.3,83.9,78.24,92,100,6.58,overcast clouds
568,Port Hawkesbury,CA,45.6169,-61.3485,80.91,45,20,10.36,few clouds
569,Georgetown,MY,5.4112,100.3354,84.13,91,20,2.3,few clouds
570,Shelburne,CA,44.0787,-80.2041,82.11,52,100,8.68,overcast clouds
571,Qostanay,KZ,53.1667,63.5833,66.49,88,0,6.71,clear sky
572,Rodos,GR,36.4408,28.2225,89.26,40,0,3.44,clear sky
573,Mikumi,TZ,-7.4041,36.9831,65.19,62,44,4.03,scattered clouds
574,Kampene,CD,-3.6,26.6667,72.66,65,67,0.78,broken clouds
575,Bogorodskoye,RU,56.55,37.8833,57.33,79,88,2.98,overcast clouds
576,Moba,CN,33.2288,105.0179,61.97,57,100,4.81,overcast clouds
577,Podgorica,ME,42.4411,19.2636,82.18,47,0,2.3,clear sky
578,San Policarpo,PH,12.1791,125.5072,79.75,85,100,9.06,overcast clouds
579,Nago,JP,26.5881,127.9761,83.25,89,100,17.92,overcast clouds
580,Peniche,PT,39.3558,-9.3811,72.09,85,0,5.08,clear sky
581,Rypefjord,NO,70.6333,23.6667,48.67,100,75,5.75,broken clouds
582,Horsham,GB,51.064,-0.3272,79.74,36,0,3.44,clear sky
583,Leh,IN,34.1667,77.5833,64.08,48,70,2.98,broken clouds
584,Santarem,BR,-2.4431,-54.7083,87.93,79,20,10.36,few clouds
585,Borogontsy,RU,62.6683,131.1683,69.35,86,80,4.81,broken clouds
586,Sao Joao Da Barra,BR,-21.6403,-41.0511,80.69,84,100,18.97,overcast clouds
587,Sur,OM,22.5667,59.5289,86.13,68,100,8.32,light rain
588,Plaridel,PH,14.8872,120.8572,78.78,91,83,4.56,broken clouds
589,Ignacio Zaragoza,MX,28.3833,-107.2167,78.55,34,97,13.94,overcast clouds
590,Hay River,CA,60.8156,-115.7999,78.78,41,100,9.22,overcast clouds
591,Solone,UA,48.2081,34.8721,60.37,73,0,8.05,clear sky
592,Nejdek,CZ,50.3224,12.7294,68.45,30,0,5.75,clear sky
593,Along,IN,28.1667,94.7667,75.13,98,99,1.1,overcast clouds
594,Jiancheng,CN,30.391,104.5491,73.13,88,100,6.89,overcast clouds
595,Kijang,KR,35.2442,129.2139,80.33,79,100,7.38,light rain
596,Zhangye,CN,38.9342,100.4517,73.18,34,100,4.76,overcast clouds
597,Aksarka,RU,66.5606,67.7975,58.93,60,100,5.53,overcast clouds
598,Kaeo,NZ,-35.1,173.7833,49.32,95,100,6.15,overcast clouds
599,Lahaina,US,20.8783,-156.6825,83.95,78,48,8.97,scattered clouds
600,Mapiripan,CO,2.8892,-72.1256,82.85,79,68,2.24,moderate rain
601,Bitung,ID,1.4451,125.1824,76.05,88,100,4.36,moderate rain
602,Luena,AO,-11.7833,19.9167,55.96,49,3,3.96,clear sky
603,Ust-Maya,RU,60.4167,134.5333,68.36,75,4,2.55,clear sky
604,Wagga Wagga,AU,-35.1167,147.3667,43.84,93,75,10.36,broken clouds
605,Yulara,AU,-25.2406,130.9889,48.07,45,61,9.31,broken clouds
606,Lubango,AO,-14.9172,13.4925,58.01,36,1,2.46,clear sky
607,Tshikapa,CD,-6.4167,20.8,84.16,25,100,2.84,overcast clouds
608,Manadhoo,MV,5.7667,73.3833,79.74,82,100,23.58,overcast clouds
609,Dauriya,RU,49.9333,116.8667,60.67,88,100,5.5,overcast clouds
610,Suntar,RU,62.1444,117.6319,55.56,95,100,3.56,overcast clouds
611,Den Helder,NL,52.9599,4.7593,71.58,60,83,3.44,broken clouds
612,Mae Ramat,TH,16.984,98.5166,78.8,99,78,1.21,broken clouds
613,Linqing,CN,36.8456,115.7117,76.21,80,38,4.68,scattered clouds
614,Saint-Francois,FR,46.4154,3.9054,76.44,53,0,2.3,clear sky
615,Afzalgarh,IN,29.4,78.6833,88.74,52,4,4.12,clear sky
616,Sommerda,DE,51.15,11.1,67.87,40,96,4.83,overcast clouds
617,Abu Samrah,SY,35.3029,37.1841,79.41,50,0,11.74,clear sky
618,Hauterive,FR,46.0901,3.4459,79.56,42,76,4.18,broken clouds
619,Takapau,NZ,-40.0333,176.35,47.73,82,100,4.59,overcast clouds
620,Porto Novo,BJ,6.4965,2.6036,75.74,85,42,7.61,scattered clouds
621,Dudinka,RU,69.4058,86.1778,54.63,68,0,9.15,clear sky
622,Port Keats,AU,-14.25,129.55,62.13,48,23,5.75,few clouds
623,Harper,LR,4.375,-7.7169,75.25,81,99,11.54,overcast clouds
624,Husavik,IS,66.0449,-17.3389,46.54,93,100,9.19,overcast clouds
625,Port Shepstone,ZA,-30.7414,30.455,64.71,77,0,14.34,clear sky
626,Muborak,UZ,39.2553,65.1528,88.65,13,0,13.22,clear sky
627,Gainesville,US,29.6516,-82.3248,92.07,55,20,3.44,few clouds
628,Jining,CN,35.405,116.5814,74.12,93,20,3.47,few clouds
629,Marsa Matruh,EG,31.3525,27.2453,79.0,73,0,9.22,clear sky
630,Sharan,RU,54.8167,54.0,65.21,88,100,4.07,light rain
631,Praia Da Vitoria,PT,38.7333,-27.0667,77.25,69,75,11.39,broken clouds
632,Ivanovka,KG,42.8878,75.085,74.95,20,0,2.86,clear sky
633,Tachov,CZ,49.7953,12.6337,70.0,51,44,4.59,scattered clouds
634,Riverton,US,40.5219,-111.9391,103.24,21,0,9.22,clear sky
635,Lompoc,US,34.6391,-120.4579,80.85,68,0,14.97,clear sky
636,Sao Jose Da Coroa Grande,BR,-8.8978,-35.1478,75.67,79,86,10.71,overcast clouds
637,Lamu,KE,-2.2717,40.902,75.42,80,7,16.98,clear sky
638,Ambanja,MG,-13.6833,48.45,70.84,85,100,2.93,overcast clouds
639,Aktas,KZ,49.7789,72.9608,60.55,58,2,9.33,clear sky
640,Carutapera,BR,-1.195,-46.02,81.39,74,66,8.55,broken clouds
641,Marystown,CA,47.1666,-55.1483,67.26,71,100,12.17,overcast clouds
642,Si Sa Ket,TH,14.8333,104.3333,81.86,89,100,6.85,overcast clouds
643,Diffa,NE,13.3154,12.6113,76.08,76,52,14.72,broken clouds
644,Biograd Na Moru,HR,43.9433,15.4519,83.1,43,0,12.06,clear sky
645,Negombo,LK,7.2083,79.8358,82.45,83,75,6.91,heavy intensity rain
646,Rocha,UY,-34.4833,-54.3333,49.57,64,0,9.73,clear sky
647,Visby,SE,57.6409,18.296,64.62,77,75,6.91,broken clouds
648,Safford,US,32.834,-109.7076,105.12,23,0,3.89,clear sky
649,Cap Malheureux,MU,-19.9842,57.6142,70.47,60,31,8.01,scattered clouds
650,Ramhormoz,IR,31.28,49.6035,101.37,9,0,5.08,clear sky
651,Bar-Le-Duc,FR,48.75,5.1667,77.38,22,34,8.3,scattered clouds
652,Reforma,MX,18.1,-91.0167,92.28,46,85,5.75,overcast clouds
653,The Valley,AI,18.217,-63.0578,87.66,66,20,18.41,few clouds
654,Sharjah,AE,25.3573,55.4033,98.58,44,100,5.75,overcast clouds
655,Pontes E Lacerda,BR,-15.2261,-59.3353,85.41,38,5,5.68,clear sky
656,Ibia,BR,-19.4783,-46.5389,85.46,34,43,8.1,scattered clouds
657,Bayangol,RU,50.6977,103.4656,49.12,93,15,1.79,few clouds
658,Keffi,NG,8.8486,7.8736,72.91,92,100,0.38,light rain
659,Vardo,NO,70.3705,31.1107,53.58,94,0,6.91,clear sky
660,Caucaia,BR,-3.7361,-38.6531,84.15,76,20,14.97,few clouds
661,Dukat,RU,62.55,155.55,48.79,90,100,5.17,moderate rain
662,Alikalia,SL,9.1667,-11.4,71.56,99,99,4.29,light rain
663,Vestmanna,FO,62.1564,-7.1664,49.12,93,100,9.22,drizzle
664,Mana,GF,5.6592,-53.7767,79.75,81,99,5.26,overcast clouds
665,Big Spring,US,32.2504,-101.4787,98.24,27,0,4.0,clear sky
666,Cascais,PT,38.6979,-9.4215,75.06,66,20,14.0,few clouds
667,Dabat,ET,12.9842,37.765,52.56,93,100,5.59,light rain
668,Sioux Lookout,CA,50.1001,-91.917,84.27,51,75,11.5,broken clouds
669,Umm Lajj,SA,25.0213,37.2685,86.02,53,86,6.8,overcast clouds
670,Kamenka,RU,51.3223,42.7678,65.66,87,60,4.88,light rain
671,Bizhbulyak,RU,53.6967,54.2642,64.67,84,97,2.55,overcast clouds
672,Abeche,TD,13.8292,20.8324,75.18,81,100,8.25,moderate rain
673,Harmanli,BG,41.9333,25.9,75.2,31,7,6.55,clear sky
674,Evensk,RU,61.95,159.2333,54.95,95,100,2.04,light rain
675,Beaverlodge,CA,55.2166,-119.4361,72.75,38,0,3.02,clear sky
676,Tual,ID,-5.6667,132.75,78.73,77,58,19.75,broken clouds
677,Batticaloa,LK,7.7102,81.6924,81.66,79,100,5.06,overcast clouds
678,Udachnyy,RU,66.4167,112.4,50.45,100,100,3.44,overcast clouds
679,Thyolo,MW,-16.0678,35.1405,57.63,83,97,3.51,overcast clouds
680,Petoa,HN,15.2667,-88.2833,88.77,60,78,4.85,broken clouds
681,Anupgarh,IN,29.1911,73.2086,87.24,69,8,8.72,heavy intensity rain
682,Olinda,BR,-8.0089,-34.8553,78.53,73,75,14.97,broken clouds
683,Oranjemund,NA,-28.55,16.4333,59.79,70,1,6.4,clear sky
684,Phek,IN,25.6667,94.5,61.9,100,95,1.68,light rain
685,Samarai,PG,-10.6167,150.6667,79.38,81,27,5.19,scattered clouds
686,Banepa,NP,27.6298,85.5214,73.72,83,75,4.61,broken clouds
687,Basco,PH,20.4487,121.9702,84.83,79,100,13.53,overcast clouds
688,Santa Cruz,BO,-17.8,-63.1667,59.05,72,75,9.22,broken clouds
689,Burns Lake,CA,54.2331,-125.7533,62.02,36,100,6.35,overcast clouds
690,Nantucket,US,41.2835,-70.0995,82.54,82,0,11.5,clear sky
691,Almaznyy,RU,48.0448,40.045,69.94,45,13,8.05,few clouds
692,Kachiry,KZ,53.0675,76.1036,59.95,69,76,7.45,broken clouds
693,Oriximina,BR,-1.7656,-55.8661,89.67,50,23,5.59,few clouds
694,Gwanda,ZW,-20.9333,29.0,53.28,85,29,4.97,scattered clouds
695,Mantua,IT,45.1667,10.7833,87.04,67,0,1.99,clear sky
696,Krasnoyarka,RU,55.3333,73.1167,57.15,79,46,7.14,scattered clouds
697,Mangrol,IN,21.1167,70.1167,80.69,84,100,18.52,overcast clouds
698,Balilesti,RO,45.0667,24.9333,58.12,43,1,6.62,clear sky
699,Sarangani,PH,5.4033,125.4636,81.3,78,100,12.21,overcast clouds
700,Fairbanks,US,64.8378,-147.7164,64.09,66,40,0.0,scattered clouds
701,Eyl,SO,7.9803,49.8164,77.86,72,27,31.38,scattered clouds
702,Nouakchott,MR,18.0858,-15.9785,78.73,82,33,14.09,scattered clouds
703,Girard,US,41.154,-80.7015,76.23,82,100,4.61,light rain
704,Bykivka,UA,50.2929,27.9831,52.57,92,6,9.66,clear sky
705,Kaura Namoda,NG,12.5898,6.5779,75.25,83,100,3.31,overcast clouds
706,Monrovia,LR,6.3005,-10.7969,78.57,82,100,14.74,light rain
707,Aripuana,BR,-9.1667,-60.6333,97.11,26,85,3.96,overcast clouds
708,Cayenne,GF,4.9333,-52.3333,87.84,1,40,11.5,scattered clouds
709,Wahiawa,US,21.5028,-158.0236,80.92,69,100,4.61,overcast clouds
710,Kiunga,PG,-6.1219,141.2906,71.8,100,97,0.56,overcast clouds
711,Erzin,TR,36.9559,36.2,76.1,79,0,0.38,clear sky
712,Itainopolis,BR,-7.4469,-41.4783,91.24,27,63,8.66,broken clouds
713,Volot,RU,57.9278,30.7025,54.79,93,100,5.01,overcast clouds
714,Labelle,US,26.7617,-81.4384,86.02,67,99,6.11,light rain
715,Uthal,PK,25.8072,66.6219,84.87,78,100,9.46,moderate rain
